{
"type": "FeatureCollection",
"name": "points",
"features": [
{ "type": "Feature", "properties": { "osm_id": "12623939286", "name": "Main Gate", "other_tags": "\"historic\"=>\"city_gate\"" }, "geometry": { "type": "Point", "coordinates": [ 76.6185762, 12.3367447 ] } },
{ "type": "Feature", "properties": { "osm_id": "3659673486", "name": "A Block" }, "geometry": { "type": "Point", "coordinates": [ 76.6187314, 12.3364796 ] } },
{ "type": "Feature", "properties": { "osm_id": "12628732680", "name": "B Block" }, "geometry": { "type": "Point", "coordinates": [ 76.6187155, 12.3362124 ] } },
{ "type": "Feature", "properties": { "osm_id": "12628732682", "name": "C Block" }, "geometry": { "type": "Point", "coordinates": [ 76.6188135, 12.3356854 ] } },
{ "type": "Feature", "properties": { "osm_id": "12628732657", "name": "D Block" }, "geometry": { "type": "Point", "coordinates": [ 76.6193297, 12.3351755 ] } },
{ "type": "Feature", "properties": { "osm_id": "12628732692", "name": "M Block" }, "geometry": { "type": "Point", "coordinates": [ 76.6198447, 12.3364895 ] } },
{ "type": "Feature", "properties": { "osm_id": "12628738510", "name": "H Block" }, "geometry": { "type": "Point", "coordinates": [ 76.6197582, 12.335338 ] } },
{ "type": "Feature", "properties": { "osm_id": "12623939156", "name": "G Block" }, "geometry": { "type": "Point", "coordinates": [ 76.6201149, 12.3353025 ] } },
{ "type": "Feature", "properties": { "osm_id": "12628732684", "name": "MBA Block" }, "geometry": { "type": "Point", "coordinates": [ 76.618154, 12.3363293 ] } },
{ "type": "Feature", "properties": { "osm_id": "12628732700", "name": "C C D" }, "geometry": { "type": "Point", "coordinates": [ 76.6187744, 12.3368874 ] } },
{ "type": "Feature", "properties": { "osm_id": "12628738502", "name": "B B Court" }, "geometry": { "type": "Point", "coordinates": [ 76.6191074, 12.3370902 ] } },
{ "type": "Feature", "properties": { "osm_id": "8187960546", "name": "Bank", "other_tags": "\"addr:full\"=>\"Vidyavardaka College of Engineering, High Tension Double Rd, Mahadeswara Badavane, Vijayanagar 1st Stage, Vijayanagar, Mysuru, Karnataka\",\"addr:state\"=>\"Karnataka\",\"amenity\"=>\"bank\",\"name:kn\"=>\"ವಿಜಯ ಬ್ಯಾಂಕು\"" }, "geometry": { "type": "Point", "coordinates": [ 76.6190639, 12.3363344 ] } },
{ "type": "Feature", "properties": { "osm_id": "12628732689", "name": "Food court" }, "geometry": { "type": "Point", "coordinates": [ 76.6190786, 12.3362135 ] } },
{ "type": "Feature", "properties": { "osm_id": "12628732673", "name": "Sports complex" }, "geometry": { "type": "Point", "coordinates": [ 76.6195008, 12.3358058 ] } },
{ "type": "Feature", "properties": { "osm_id": "12623939199", "name": "health center", "other_tags": "\"amenity\"=>\"hospital\",\"healthcare\"=>\"hospital\"" }, "geometry": { "type": "Point", "coordinates": [ 76.6190672, 12.3360301 ] } },
{ "type": "Feature", "properties": { "osm_id": "12623925590", "name": "GYM" }, "geometry": { "type": "Point", "coordinates": [ 76.6193833, 12.3354695 ] } },
{ "type": "Feature", "properties": { "osm_id": "12628732687", "name": "Mech workshop" }, "geometry": { "type": "Point", "coordinates": [ 76.6191732, 12.3355225 ] } },
{ "type": "Feature", "properties": { "osm_id": "12628738516", "name": "Civil workshop", "other_tags": "\"office\"=>\"engineer\"" }, "geometry": { "type": "Point", "coordinates": [ 76.6191397, 12.3357564 ] } },
{ "type": "Feature", "properties": { "osm_id": "12628732661", "name": "K P first grade college" }, "geometry": { "type": "Point", "coordinates": [ 76.6202078, 12.335587 ] } },
{ "type": "Feature", "properties": { "osm_id": "12628732663", "name": "First grade college" }, "geometry": { "type": "Point", "coordinates": [ 76.6202819, 12.3357943 ] } },
{ "type": "Feature", "properties": { "osm_id": "12628732665", "name": "I T I" }, "geometry": { "type": "Point", "coordinates": [ 76.6203271, 12.3360801 ] } },
{ "type": "Feature", "properties": { "osm_id": "12628732667", "name": "PU College" }, "geometry": { "type": "Point", "coordinates": [ 76.620417, 12.3365916 ] } },
{ "type": "Feature", "properties": { "osm_id": "12628732671", "name": "K P School" }, "geometry": { "type": "Point", "coordinates": [ 76.6209323, 12.3366482 ] } },
{ "type": "Feature", "properties": { "osm_id": "12628732696", "name": "polytechnic college" }, "geometry": { "type": "Point", "coordinates": [ 76.620013, 12.3372911 ] } },
{ "type": "Feature", "properties": { "osm_id": "12628732699", "name": "Security room" }, "geometry": { "type": "Point", "coordinates": [ 76.6186453, 12.3368898 ] } },
{ "type": "Feature", "properties": { "osm_id": "12628738508", "name": "MBA Parking" }, "geometry": { "type": "Point", "coordinates": [ 76.6183058, 12.3358128 ] } },
{ "type": "Feature", "properties": { "osm_id": "12623939263", "name": "K P Ground", "other_tags": "\"natural\"=>\"wetland\"" }, "geometry": { "type": "Point", "coordinates": [ 76.6207626, 12.3371286 ] } },
{ "type": "Feature", "properties": { "osm_id": "12623939264", "name": "Parking D Block" }, "geometry": { "type": "Point", "coordinates": [ 76.6191495, 12.335174 ] } },
{ "type": "Feature", "properties": { "osm_id": "12623939265", "name": "polytechnic parking", "other_tags": "\"amenity\"=>\"parking\"" }, "geometry": { "type": "Point", "coordinates": [ 76.6195463, 12.3375947 ] } },
{ "type": "Feature", "properties": { "osm_id": "12623939274", "name": "garden polytechnic", "other_tags": "\"leisure\"=>\"park\"" }, "geometry": { "type": "Point", "coordinates": [ 76.6185997, 12.3358535 ] } },
{ "type": "Feature", "properties": { "osm_id": "12623939131", "name": "boys hostel" }, "geometry": { "type": "Point", "coordinates": [ 76.6191961, 12.3380005 ] } },
{ "type": "Feature", "properties": { "osm_id": "12623939133", "name": "girls hostel" }, "geometry": { "type": "Point", "coordinates": [ 76.6201685, 12.3379502 ] } },
{ "type": "Feature", "properties": { "osm_id": "12628738509", "name": "back gate" }, "geometry": { "type": "Point", "coordinates": [ 76.6204465, 12.3376034 ] } },
{ "type": "Feature", "properties": { "osm_id": "12623939307", "name": "Electric supply", "other_tags": "\"craft\"=>\"electrician\"" }, "geometry": { "type": "Point", "coordinates": [ 76.6189801, 12.335297 ] } }
]
}
